{
  "plans": {
    "day1": {
      "route": [
        {
          "name": "롯데월드타워 서울스카이",
          "category": "관광지",
          "category2": "랜드마크관광",
          "lat": 37.5141653654,
          "lng": 127.1040749597
        },
        {
          "name": "석촌호수",
          "category": "관광지",
          "category2": "도시공원",
          "lat": 37.5095713442,
          "lng": 127.0979728676
        },
        {
          "name": "롯데월드 어드벤처",
          "category": "관광지",
          "category2": "테마공원",
          "lat": 37.5113516917,
          "lng": 127.0979006014
        },
        {
          "name": "롯데월드 민속박물관",
          "category": "문화시설",
          "category2": "전시시설",
          "lat": 37.5123821225,
          "lng": 127.0976311526
        },
        {
          "name": "롯데월드타워&롯데월드몰",
          "category": "관광지",
          "category2": "랜드마크관광",
          "lat": 37.5141653654,
          "lng": 127.1040749597
        }
      ],
      "restaurants": [
        {
          "name": "군산오징어 본점",
          "category": "음식점",
          "category2": "한식",
          "lat": 37.5063411468,
          "lng": 127.0970258234
        },
        {
          "name": "바이킹스워프 롯데월드몰점",
          "category": "음식점",
          "category2": "외국식",
          "lat": 37.5142459111,
          "lng": 127.1040305171
        }
      ],
      "accommodations": [
        {
          "name": "롯데호텔 월드",
          "category": "숙박",
          "category2": "호텔",
          "lat": 37.5123821225,
          "lng": 127.0976311526
        }
      ]
    },
    "day2": {
      "route": [
        {
          "name": "올림픽공원",
          "category": "관광지",
          "category2": "도시공원",
          "lat": 37.5206092598,
          "lng": 127.1150682209
        },
        {
          "name": "소마미술관",
          "category": "문화시설",
          "category2": "전시시설",
          "lat": 37.5206092598,
          "lng": 127.1150682209
        },
        {
          "name": "올림픽공원 들꽃마루",
          "category": "관광지",
          "category2": "기타자연관광",
          "lat": 37.5206092598,
          "lng": 127.1150682209
        },
        {
          "name": "서울 암사동 유적",
          "category": "관광지",
          "category2": "역사유적지",
          "lat": 37.5591134023,
          "lng": 127.1306157102
        },
        {
          "name": "암사동 선사유적박물관",
          "category": "문화시설",
          "category2": "전시시설",
          "lat": 37.5591134023,
          "lng": 127.1306157102
        }
      ],
      "restaurants": [
        {
          "name": "송림식당",
          "category": "음식점",
          "category2": "한식",
          "lat": 37.5368344594,
          "lng": 127.0765490434
        },
        {
          "name": "대가식당",
          "category": "음식점",
          "category2": "한식",
          "lat": 37.5420841713,
          "lng": 127.0943861597
        }
      ],
      "accommodations": []
    }
  }
}