{
  "plans": {
    "day1": {
      "route": [
        {
          "name": "종로구 공원",
          "category": "관광지",
          "lat": 37.696417,
          "lng": 127.001963
        },
        {
          "name": "종로구 야시장",
          "category": "관광지",
          "lat": 37.676298,
          "lng": 127.039866
        },
        {
          "name": "종로구 전시관",
          "category": "관광지",
          "lat": 37.67758,
          "lng": 127.126256
        },
        {
          "name": "종로구 로스터리",
          "category": "관광지",
          "lat": 37.62564,
          "lng": 127.172538
        },
        {
          "name": "종로구 공원",
          "category": "관광지",
          "lat": 37.60519,
          "lng": 127.186528
        }
      ],
      "restaurants": [
        {
          "name": "종로구 국밥집",
          "category": "식당",
          "lat": 37.664681,
          "lng": 127.199049
        },
        {
          "name": "종로구 식당",
          "category": "식당",
          "lat": 37.598712,
          "lng": 127.191027
        }
      ],
      "accommodations": [
        {
          "name": "종로구 호텔",
          "category": "숙박",
          "lat": 37.500181,
          "lng": 127.192868
        }
      ]
    },
    "day2": {
      "route": [
        {
          "name": "종로구 공원",
          "category": "관광지",
          "lat": 37.49513,
          "lng": 127.006918
        },
        {
          "name": "종로구 산책로",
          "category": "관광지",
          "lat": 37.412347,
          "lng": 127.064755
        },
        {
          "name": "종로구 전시관",
          "category": "관광지",
          "lat": 37.598109,
          "lng": 127.132882
        },
        {
          "name": "종로구 전망대",
          "category": "관광지",
          "lat": 37.595788,
          "lng": 127.080228
        },
        {
          "name": "종로구 전시관",
          "category": "관광지",
          "lat": 37.579055,
          "lng": 126.966647
        }
      ],
      "restaurants": [
        {
          "name": "종로구 국밥집",
          "category": "식당",
          "lat": 37.546551,
          "lng": 126.984425
        },
        {
          "name": "종로구 파스타집",
          "category": "식당",
          "lat": 37.580812,
          "lng": 127.189389
        }
      ],
      "accommodations": []
    }
  }
}