{
  "plans": {
    "day1": {
      "route": [
        {
          "name": "강남 마이스 관광특구",
          "category": "관광지",
          "lat": 37.5119175967,
          "lng": 127.059217995
        },
        {
          "name": "역삼개나리공원",
          "category": "관광지",
          "lat": 37.4976466191,
          "lng": 127.0362843748
        },
        {
          "name": "법룡사",
          "category": "관광지",
          "lat": 37.4862044398,
          "lng": 127.0883855136
        },
        {
          "name": "플랫폼플레이스 스타필드 코엑스몰점",
          "category": "관광지",
          "lat": 37.5119175967,
          "lng": 127.059217995
        },
        {
          "name": "VANS 스타필드 코엑스몰점",
          "category": "관광지",
          "lat": 37.5119175967,
          "lng": 127.059217995
        }
      ],
      "restaurants": [
        {
          "name": "시추안하우스 본점",
          "category": "식당",
          "lat": 37.509642839,
          "lng": 127.0580070584
        },
        {
          "name": "삼원가든",
          "category": "식당",
          "lat": 37.5249322713,
          "lng": 127.0324617282
        }
      ],
      "accommodations": [
        {
          "name": "노보텔 앰배서더 서울 강남",
          "category": "숙박",
          "lat": 37.5053372605,
          "lng": 127.0289098282
        }
      ]
    },
    "day2": {
      "route": [
        {
          "name": "러쉬 압구정 스파점",
          "category": "관광지",
          "lat": 37.5278014087,
          "lng": 127.0339226251
        },
        {
          "name": "가미성형외과",
          "category": "관광지",
          "lat": 37.4987019129,
          "lng": 127.0285433827
        },
        {
          "name": "풋조이 도산점",
          "category": "관광지",
          "lat": 37.5224964546,
          "lng": 127.0331117381
        },
        {
          "name": "씨샵 압구정 플래그쉽",
          "category": "관광지",
          "lat": 37.5247157249,
          "lng": 127.037766807
        },
        {
          "name": "디스커버리 가로수길",
          "category": "관광지",
          "lat": 37.5196549349,
          "lng": 127.0229238571
        }
      ],
      "restaurants": [
        {
          "name": "썬더버드 청담점",
          "category": "식당",
          "lat": 37.5262406187,
          "lng": 127.041716404
        },
        {
          "name": "우가",
          "category": "식당",
          "lat": 37.5196576435,
          "lng": 127.0190908729
        }
      ],
      "accommodations": []
    }
  }
}