{
  "plans": {
    "day1": {
      "route": [
        {
          "name": "북서울꿈의숲",
          "category": "공원",
          "lat": 37.619724251,
          "lng": 127.0445440464
        },
        {
          "name": "상상톡톡 미술관",
          "category": "박물관",
          "lat": 37.619724251,
          "lng": 127.0445440464
        },
        {
          "name": "오동근린공원",
          "category": "공원",
          "lat": 37.6295534635,
          "lng": 127.0334142261
        },
        {
          "name": "오동근린공원 유아숲체험장",
          "category": "공원",
          "lat": 37.6330697001,
          "lng": 127.0322420107
        },
        {
          "name": "강북청소년축제 강추",
          "category": "문화 행사",
          "lat": 37.6321225012,
          "lng": 127.0274174771
        }
      ],
      "restaurants": [
        {
          "name": "메이린",
          "category": "음식점",
          "lat": 37.619724251,
          "lng": 127.0445440464
        },
        {
          "name": "리코",
          "category": "음식점",
          "lat": 37.6313947898,
          "lng": 127.0264453642
        }
      ],
      "accommodations": [
        {
          "name": "리치다이아몬드호텔",
          "category": "숙박",
          "lat": 37.6476399283,
          "lng": 127.0156236669
        }
      ]
    },
    "day2": {
      "route": [
        {
          "name": "우이동계곡",
          "category": "자연",
          "lat": 37.6694622455,
          "lng": 127.0076182199
        },
        {
          "name": "우이동만남의광장",
          "category": "공원",
          "lat": 37.6618909066,
          "lng": 127.007729537
        },
        {
          "name": "[서울둘레길 20코스] 북한산 강북코스",
          "category": "둘레길",
          "lat": 37.6324804306,
          "lng": 127.007333188
        },
        {
          "name": "도선사(서울)",
          "category": "사찰",
          "lat": 37.6563162556,
          "lng": 126.9911089898
        },
        {
          "name": "북한산 백운대(우이동)",
          "category": "등산",
          "lat": 37.6583104651,
          "lng": 126.9909450591
        }
      ],
      "restaurants": [
        {
          "name": "왕의장어",
          "category": "음식점",
          "lat": 37.6694622455,
          "lng": 127.0076182199
        },
        {
          "name": "카페 산아래",
          "category": "음식점",
          "lat": 37.6668737098,
          "lng": 127.0105041413
        }
      ],
      "accommodations": []
    }
  }
}