{
  "plans": {
    "day1": {
      "route": [
        {
          "name": "롯데월드타워 서울스카이",
          "category": "관광",
          "lat": 37.5141653654,
          "lng": 127.1040749597
        },
        {
          "name": "롯데월드 아쿠아리움",
          "category": "관광",
          "lat": 37.5141653654,
          "lng": 127.1040749597
        },
        {
          "name": "롯데월드 민속박물관",
          "category": "관광",
          "lat": 37.5123821225,
          "lng": 127.0976311526
        },
        {
          "name": "석촌호수",
          "category": "관광",
          "lat": 37.5095713442,
          "lng": 127.0979728676
        },
        {
          "name": "올림픽공원",
          "category": "관광",
          "lat": 37.5206092598,
          "lng": 127.1150682209
        }
      ],
      "restaurants": [
        {
          "name": "캐롤스 본점",
          "category": "음식점",
          "lat": 37.5141653654,
          "lng": 127.1040749597
        },
        {
          "name": "바이킹스워프 롯데월드몰점",
          "category": "음식점",
          "lat": 37.5142459111,
          "lng": 127.1040305171
        }
      ],
      "accommodations": [
        {
          "name": "롯데호텔 월드",
          "category": "숙박",
          "lat": 37.5123821225,
          "lng": 127.0976311526
        }
      ]
    },
    "day2": {
      "route": [
        {
          "name": "서울놀이마당",
          "category": "관광",
          "lat": 37.5097129968,
          "lng": 127.0981006298
        },
        {
          "name": "롯데월드 아이스링크",
          "category": "관광",
          "lat": 37.5123821225,
          "lng": 127.0976311526
        },
        {
          "name": "롯데월드 쇼핑몰",
          "category": "관광",
          "lat": 37.5141653654,
          "lng": 127.1040749597
        },
        {
          "name": "가락농수산물종합도매시장",
          "category": "관광",
          "lat": 37.4960786971,
          "lng": 127.1107693087
        },
        {
          "name": "올림픽공원 들꽃마루",
          "category": "관광",
          "lat": 37.5206092598,
          "lng": 127.1150682209
        }
      ],
      "restaurants": [
        {
          "name": "군산오징어 본점",
          "category": "음식점",
          "lat": 37.5063411468,
          "lng": 127.0970258234
        },
        {
          "name": "진성한우곱창",
          "category": "음식점",
          "lat": 37.4947623594,
          "lng": 127.1205740095
        }
      ],
      "accommodations": []
    }
  }
}
