{
  "plans": {
    "day1": {
      "route": [
        {
          "name": "롯데월드타워 (서울스카이)",
          "category": "관광지",
          "lat": 37.5126,
          "lng": 127.1025
        },
        {
          "name": "석촌호수",
          "category": "관광지",
          "lat": 37.5098,
          "lng": 127.1022
        },
        {
          "name": "별마당 도서관 (코엑스몰)",
          "category": "관광지",
          "lat": 37.5112,
          "lng": 127.0598
        },
        {
          "name": "봉은사",
          "category": "관광지",
          "lat": 37.5147,
          "lng": 127.0573
        }
      ],
      "restaurants": [
        {
          "name": "송계옥 본점",
          "category": "식당",
          "lat": 37.5116,
          "lng": 127.1105
        },
        {
          "name": "하동관 코엑스몰직영점",
          "category": "식당",
          "lat": 37.5115,
          "lng": 127.0594
        }
      ],
      "accommodations": [
        {
          "name": "인터컨티넨탈 서울 코엑스",
          "category": "숙박",
          "lat": 37.5133,
          "lng": 127.0583
        }
      ]
    },
    "day2": {
      "route": [
        {
          "name": "N서울타워 (남산타워)",
          "category": "관광지",
          "lat": 37.5512,
          "lng": 126.9882
        },
        {
          "name": "리움미술관",
          "category": "관광지",
          "lat": 37.537,
          "lng": 127.0014
        },
        {
          "name": "전쟁기념관",
          "category": "관광지",
          "lat": 37.5366,
          "lng": 126.9771
        },
        {
          "name": "국립중앙박물관",
          "category": "관광지",
          "lat": 37.524,
          "lng": 126.9803
        }
      ],
      "restaurants": [
        {
          "name": "빠르크 (Parc)",
          "category": "식당",
          "lat": 37.5368,
          "lng": 127.0008
        },
        {
          "name": "오근내닭갈비 본점",
          "category": "식당",
          "lat": 37.5265,
          "lng": 126.9642
        }
      ]
    }
  }
}
