{
  "plans": {
    "day1": {
      "route": [
        {
          "name": "경의선 숲길 (연트럴파크)",
          "category": "공원",
          "lat": 37.5623,
          "lng": 126.9234
        },
        {
          "name": "KT&G 상상마당 홍대",
          "category": "관광지",
          "lat": 37.5509,
          "lng": 126.9213
        },
        {
          "name": "망원시장",
          "category": "시장",
          "lat": 37.5559,
          "lng": 126.9064
        },
        {
          "name": "망원 한강공원",
          "category": "공원",
          "lat": 37.5523,
          "lng": 126.8997
        }
      ],
      "restaurants": [
        {
          "name": "소이연남",
          "category": "식당",
          "lat": 37.5635,
          "lng": 126.9254
        },
        {
          "name": "이치젠 (텐동)",
          "category": "식당",
          "lat": 37.5552,
          "lng": 126.9103
        }
      ],
      "accommodations": [
        {
          "name": "라이즈 오토그래프 컬렉션",
          "category": "숙박",
          "lat": 37.5543,
          "lng": 126.9221
        }
      ]
    },
    "day2": {
      "route": [
        {
          "name": "더현대 서울",
          "category": "관광지",
          "lat": 37.5259,
          "lng": 126.9284
        },
        {
          "name": "여의도 한강공원",
          "category": "공원",
          "lat": 37.5284,
          "lng": 126.9343
        },
        {
          "name": "63스퀘어 (63빌딩)",
          "category": "관광지",
          "lat": 37.5193,
          "lng": 126.9402
        },
        {
          "name": "노량진 수산시장",
          "category": "시장",
          "lat": 37.5134,
          "lng": 126.9416
        }
      ],
      "restaurants": [
        {
          "name": "진주집 (여의도백화점)",
          "category": "식당",
          "lat": 37.5204,
          "lng": 126.9306
        },
        {
          "name": "세상의모든아침",
          "category": "식당",
          "lat": 37.5218,
          "lng": 126.9189
        }
      ]
    }
  }
}
