{
  "plans": {
    "day1": {
      "route": [
        {
          "name": "경복궁",
          "category": "관광지",
          "lat": 37.5796,
          "lng": 126.977
        },
        {
          "name": "국립민속박물관",
          "category": "박물관",
          "lat": 37.5816,
          "lng": 126.979
        },
        {
          "name": "청와대",
          "category": "관광지",
          "lat": 37.5866,
          "lng": 126.9768
        },
        {
          "name": "서촌마을",
          "category": "관광지",
          "lat": 37.58,
          "lng": 126.9685
        }
      ],
      "restaurants": [
        {
          "name": "토속촌 삼계탕",
          "category": "식당",
          "lat": 37.5777,
          "lng": 126.9718
        },
        {
          "name": "잘빠진메밀 서촌본점",
          "category": "식당",
          "lat": 37.5773,
          "lng": 126.9712
        }
      ],
      "accommodations": [
        {
          "name": "신라스테이 광화문",
          "category": "숙박",
          "lat": 37.5724,
          "lng": 126.9811
        }
      ]
    },
    "day2": {
      "route": [
        {
          "name": "북촌한옥마을",
          "category": "관광지",
          "lat": 37.5829,
          "lng": 126.9835
        },
        {
          "name": "인사동 쌈지길",
          "category": "관광지",
          "lat": 37.5743,
          "lng": 126.9848
        },
        {
          "name": "조계사",
          "category": "관광지",
          "lat": 37.5739,
          "lng": 126.9822
        },
        {
          "name": "광장시장",
          "category": "관광지",
          "lat": 37.57,
          "lng": 126.999
        }
      ],
      "restaurants": [
        {
          "name": "이문설농탕",
          "category": "식당",
          "lat": 37.5735,
          "lng": 126.9833
        },
        {
          "name": "북촌손만두 인사본점",
          "category": "식당",
          "lat": 37.5748,
          "lng": 126.985
        }
      ]
    }
  }
}
