{
  "plans": {
    "day1": {
      "route": [
        {
          "name": "롯데백화점 관악점",
          "category": "쇼핑",
          "lat": 37.4905482278,
          "lng": 126.9249974851
        },
        {
          "name": "샤로수길",
          "category": "거리",
          "lat": 37.4785946078,
          "lng": 126.9556311429
        },
        {
          "name": "서울대학교 박물관",
          "category": "박물관",
          "lat": 37.4663514558,
          "lng": 126.9483849253
        },
        {
          "name": "관악산",
          "category": "산",
          "lat": 37.4484036407,
          "lng": 126.9540987991
        },
        {
          "name": "관악산 호수공원",
          "category": "공원",
          "lat": 37.4585523416,
          "lng": 126.9473157972
        }
      ],
      "restaurants": [
        {
          "name": "쟝블랑제리",
          "category": "음식점",
          "lat": 37.4772559884,
          "lng": 126.9620000459
        },
        {
          "name": "기절초풍왕순대",
          "category": "음식점",
          "lat": 37.4781641526,
          "lng": 126.9584336783
        }
      ],
      "accommodations": [
        {
          "name": "더휴식 심도 호텔 앤 스파 신림역점",
          "category": "숙박",
          "lat": 37.4849767581,
          "lng": 126.9309248799
        }
      ]
    },
    "day2": {
      "route": [
        {
          "name": "올리브영 신림점",
          "category": "쇼핑",
          "lat": 37.485818297,
          "lng": 126.9292027906
        },
        {
          "name": "관악강감찬축제",
          "category": "축제",
          "lat": 37.4716399155,
          "lng": 126.9587338341
        },
        {
          "name": "삼모아트센터",
          "category": "문화시설",
          "lat": 37.4823659172,
          "lng": 126.9290390137
        },
        {
          "name": "호림박물관 신림본관",
          "category": "박물관",
          "lat": 37.4808186916,
          "lng": 126.9187927683
        },
        {
          "name": "신원시장",
          "category": "시장",
          "lat": 37.4825519718,
          "lng": 126.9271141837
        }
      ],
      "restaurants": [
        {
          "name": "강강술래 신림동",
          "category": "음식점",
          "lat": 37.4845518811,
          "lng": 126.9350272959
        },
        {
          "name": "또순이원조순대",
          "category": "음식점",
          "lat": 37.4833519091,
          "lng": 126.9287890094
        }
      ],
      "accommodations": []
    }
  }
}