{
  "plans": {
    "day1": {
      "route": [
        {
          "name": "덕수궁",
          "category": "궁",
          "lat": 37.5651071556,
          "lng": 126.9765906796
        },
        {
          "name": "광화문광장",
          "category": "광장",
          "lat": 37.5727035021,
          "lng": 126.9769709861
        },
        {
          "name": "국립고궁박물관",
          "category": "박물관",
          "lat": 37.576644675,
          "lng": 126.9749904992
        },
        {
          "name": "경복궁",
          "category": "궁",
          "lat": 37.5760836609,
          "lng": 126.9767375783
        },
        {
          "name": "인사동",
          "category": "거리",
          "lat": 37.5754616322,
          "lng": 126.9835230884
        }
      ],
      "restaurants": [
        {
          "name": "호면정",
          "category": "음식점",
          "lat": 37.5693928548,
          "lng": 126.9813928988
        },
        {
          "name": "광화문국밥",
          "category": "음식점",
          "lat": 37.5690039051,
          "lng": 126.9754462294
        }
      ],
      "accommodations": [
        {
          "name": "롯데호텔서울",
          "category": "숙박",
          "lat": 37.5654016461,
          "lng": 126.981045821
        }
      ]
    },
    "day2": {
      "route": [
        {
          "name": "독립선언문 배부 터",
          "category": "기념",
          "lat": 37.5752617096,
          "lng": 126.9865255983
        },
        {
          "name": "서울 운현궁",
          "category": "궁",
          "lat": 37.5764588036,
          "lng": 126.9871421746
        },
        {
          "name": "창덕궁과 후원 [유네스코 세계유산]",
          "category": "궁",
          "lat": 37.5777031595,
          "lng": 126.9902446339
        },
        {
          "name": "북촌한옥마을",
          "category": "마을",
          "lat": 37.5790529392,
          "lng": 126.9867060298
        },
        {
          "name": "조계사(서울)",
          "category": "사찰",
          "lat": 37.5739784579,
          "lng": 126.9827509785
        }
      ],
      "restaurants": [
        {
          "name": "런던베이글뮤지엄 안국",
          "category": "음식점",
          "lat": 37.5792251324,
          "lng": 126.9862171806
        },
        {
          "name": "커피한약방",
          "category": "음식점",
          "lat": 37.5666238627,
          "lng": 126.9886228739
        }
      ],
      "accommodations": []
    }
  }
}