{
  "plans": {
    "day1": {
      "route": [
        {
          "name": "경복궁",
          "category": "관광지",
          "lat": 37.5796,
          "lng": 126.977
        },
        {
          "name": "북촌 한옥마을",
          "category": "관광지",
          "lat": 37.5826,
          "lng": 126.9836
        },
        {
          "name": "인사동 쌈지길",
          "category": "관광지",
          "lat": 37.5743,
          "lng": 126.9895
        },
        {
          "name": "N서울타워 (남산타워)",
          "category": "관광지",
          "lat": 37.5512,
          "lng": 126.9882
        }
      ],
      "restaurants": [
        {
          "name": "토속촌 삼계탕",
          "category": "식당",
          "lat": 37.5776,
          "lng": 126.9716
        },
        {
          "name": "명동교자 본점",
          "category": "식당",
          "lat": 37.5626,
          "lng": 126.9856
        }
      ],
      "accommodations": [
        {
          "name": "L7 명동",
          "category": "숙박",
          "lat": 37.561,
          "lng": 126.9867
        }
      ]
    },
    "day2": {
      "route": [
        {
          "name": "서울숲",
          "category": "공원",
          "lat": 37.5444,
          "lng": 127.0374
        },
        {
          "name": "성수동 카페거리",
          "category": "관광지",
          "lat": 37.5414,
          "lng": 127.0526
        },
        {
          "name": "봉은사",
          "category": "관광지",
          "lat": 37.5152,
          "lng": 127.0573
        },
        {
          "name": "코엑스 별마당 도서관",
          "category": "관광지",
          "lat": 37.5112,
          "lng": 127.0598
        }
      ],
      "restaurants": [
        {
          "name": "소문난 성수 감자탕",
          "category": "식당",
          "lat": 37.5428,
          "lng": 127.0543
        },
        {
          "name": "하동관 코엑스몰직영점",
          "category": "식당",
          "lat": 37.5085,
          "lng": 127.0583
        }
      ]
    }
  }
}
