{
  "plans": {
    "day1": {
      "route": [
        {
          "name": "광화문",
          "category": "관광지",
          "lat": 37.576072552,
          "lng": 126.9768042386
        },
        {
          "name": "광화문광장",
          "category": "관광지",
          "lat": 37.5727035021,
          "lng": 126.9769709861
        },
        {
          "name": "국립고궁박물관",
          "category": "관광지",
          "lat": 37.576644675,
          "lng": 126.9749904992
        },
        {
          "name": "서울역사박물관",
          "category": "관광지",
          "lat": 37.5698981615,
          "lng": 126.9707771853
        },
        {
          "name": "경복궁",
          "category": "관광지",
          "lat": 37.5758446558,
          "lng": 126.9769509052
        }
      ],
      "restaurants": [
        {
          "name": "올리브영 종로1가점",
          "category": "식당",
          "lat": 37.5708982096,
          "lng": 126.9799374337
        },
        {
          "name": "광화문 마켓",
          "category": "식당",
          "lat": 37.5716786179,
          "lng": 126.9767821434
        }
      ],
      "accommodations": [
        {
          "name": "한스하우스(Hans house)",
          "category": "숙박",
          "lat": 37.5774778296,
          "lng": 126.9704270026
        }
      ]
    },
    "day2": {
      "route": [
        {
          "name": "창덕궁과 후원 [유네스코 세계유산]",
          "category": "관광지",
          "lat": 37.5777031595,
          "lng": 126.9902446339
        },
        {
          "name": "서울 운현궁",
          "category": "관광지",
          "lat": 37.5764588036,
          "lng": 126.9871421746
        },
        {
          "name": "조계사(서울)",
          "category": "관광지",
          "lat": 37.5739784579,
          "lng": 126.9827509785
        },
        {
          "name": "청계천",
          "category": "관광지",
          "lat": 37.5697015781,
          "lng": 127.0050907302
        },
        {
          "name": "낙산공원",
          "category": "관광지",
          "lat": 37.5805725621,
          "lng": 127.0065125148
        }
      ],
      "restaurants": [
        {
          "name": "이팝나무",
          "category": "식당",
          "lat": 37.573036959,
          "lng": 126.9860173743
        },
        {
          "name": "때때롯살롱",
          "category": "식당",
          "lat": 37.5734536461,
          "lng": 126.9898531239
        }
      ],
      "accommodations": []
    }
  }
}