{
  "plans": {
    "day1": {
      "route": [
        {
          "name": "종로구 전시관",
          "category": "전시관",
          "lat": 37.579055,
          "lng": 126.966647
        },
        {
          "name": "종로구 감성카페",
          "category": "카페",
          "lat": 37.573011,
          "lng": 126.901607
        },
        {
          "name": "종로구 전망대",
          "category": "전망대",
          "lat": 37.576537,
          "lng": 127.081815
        },
        {
          "name": "종로구 공원",
          "category": "공원",
          "lat": 37.49513,
          "lng": 127.006918
        }
      ],
      "restaurants": [
        {
          "name": "종로구 맛집",
          "category": "식당",
          "lat": 37.534646,
          "lng": 127.062369
        },
        {
          "name": "종로구 국밥집",
          "category": "식당",
          "lat": 37.502857,
          "lng": 127.026018
        }
      ],
      "accommodations": [
        {
          "name": "종로구 호텔",
          "category": "숙박",
          "lat": 37.449571,
          "lng": 127.069121
        }
      ]
    }
  }
}
