{
  "plans": {
    "day1": {
      "route": [
        {
          "name": "서울숲",
          "category": "관광지",
          "lat": 37.5446,
          "lng": 127.0375
        },
        {
          "name": "성수동 카페거리",
          "category": "관광지",
          "lat": 37.5468,
          "lng": 127.0426
        },
        {
          "name": "롯데월드타워 (서울스카이)",
          "category": "관광지",
          "lat": 37.5125,
          "lng": 127.1028
        },
        {
          "name": "석촌호수",
          "category": "관광지",
          "lat": 37.51,
          "lng": 127.103
        }
      ],
      "restaurants": [
        {
          "name": "할머니의 레시피",
          "category": "식당",
          "lat": 37.5468,
          "lng": 127.0426
        },
        {
          "name": "고든램지버거 롯데월드몰점",
          "category": "식당",
          "lat": 37.5125,
          "lng": 127.1028
        }
      ],
      "accommodations": [
        {
          "name": "노보텔 앰배서더 서울 용산",
          "category": "숙박",
          "lat": 37.5319,
          "lng": 126.9606
        }
      ]
    },
    "day2": {
      "route": [
        {
          "name": "더현대 서울",
          "category": "관광지",
          "lat": 37.5259,
          "lng": 126.9283
        },
        {
          "name": "여의도 한강공원",
          "category": "관광지",
          "lat": 37.5284,
          "lng": 126.9326
        },
        {
          "name": "국립중앙박물관",
          "category": "관광지",
          "lat": 37.5239,
          "lng": 126.9803
        },
        {
          "name": "리움 미술관",
          "category": "관광지",
          "lat": 37.538,
          "lng": 126.9991
        }
      ],
      "restaurants": [
        {
          "name": "더현대 서울 식당가",
          "category": "식당",
          "lat": 37.5259,
          "lng": 126.9283
        },
        {
          "name": "다운타우너 한남",
          "category": "식당",
          "lat": 37.536,
          "lng": 127.001
        }
      ]
    }
  }
}
