{
  "plans": {
    "day1": {
      "route": [
        {
          "name": "경복궁",
          "category": "관광지",
          "lat": 37.5796,
          "lng": 126.977
        },
        {
          "name": "북촌한옥마을",
          "category": "관광지",
          "lat": 37.5826,
          "lng": 126.9835
        },
        {
          "name": "광장시장",
          "category": "관광지",
          "lat": 37.5701,
          "lng": 126.9992
        },
        {
          "name": "DDP (동대문디자인플라자)",
          "category": "관광지",
          "lat": 37.5665,
          "lng": 127.0092
        }
      ],
      "restaurants": [
        {
          "name": "진옥화할매원조닭한마리",
          "category": "식당",
          "lat": 37.5693,
          "lng": 127.0062
        },
        {
          "name": "부촌육회",
          "category": "식당",
          "lat": 37.5705,
          "lng": 126.9996
        }
      ],
      "accommodations": [
        {
          "name": "포시즌스 호텔 서울",
          "category": "숙박",
          "lat": 37.5707,
          "lng": 126.9754
        }
      ]
    },
    "day2": {
      "route": [
        {
          "name": "연남동 센트럴파크 (경의선숲길)",
          "category": "관광지",
          "lat": 37.5611,
          "lng": 126.9247
        },
        {
          "name": "홍대 걷고싶은거리",
          "category": "관광지",
          "lat": 37.5566,
          "lng": 126.9237
        },
        {
          "name": "망원시장",
          "category": "관광지",
          "lat": 37.5559,
          "lng": 126.911
        },
        {
          "name": "하늘공원",
          "category": "관광지",
          "lat": 37.568,
          "lng": 126.885
        }
      ],
      "restaurants": [
        {
          "name": "연남토마 본점",
          "category": "식당",
          "lat": 37.5595,
          "lng": 126.9242
        },
        {
          "name": "소이연남",
          "category": "식당",
          "lat": 37.5617,
          "lng": 126.9244
        }
      ]
    }
  }
}
