{
  "plans": {
    "day1": {
      "route": [
        {
          "name": "롯데월드타워 (서울스카이)",
          "category": "관광지",
          "lat": 37.5126,
          "lng": 127.1025
        },
        {
          "name": "광화문 광장",
          "category": "관광지",
          "lat": 37.5759,
          "lng": 126.9768
        },
        {
          "name": "하늘공원 (월드컵공원)",
          "category": "공원",
          "lat": 37.5678,
          "lng": 126.8854
        },
        {
          "name": "NC백화점 강서점",
          "category": "관광지",
          "lat": 37.5592,
          "lng": 126.8394
        }
      ],
      "restaurants": [
        {
          "name": "계절밥상 잠실점",
          "category": "식당",
          "lat": 37.5148,
          "lng": 127.101
        },
        {
          "name": "공항칼국수",
          "category": "식당",
          "lat": 37.5612,
          "lng": 126.8115
        }
      ],
      "accommodations": [
        {
          "name": "메이필드 호텔",
          "category": "숙박",
          "lat": 37.5461,
          "lng": 126.8122
        }
      ]
    },
    "day2": {
      "route": [
        {
          "name": "서울대학교 관악캠퍼스",
          "category": "관광지",
          "lat": 37.4598,
          "lng": 126.9519
        },
        {
          "name": "스타필드 코엑스몰",
          "category": "관광지",
          "lat": 37.5112,
          "lng": 127.0598
        },
        {
          "name": "동대문 디자인 플라자 (DDP)",
          "category": "관광지",
          "lat": 37.5665,
          "lng": 127.0092
        },
        {
          "name": "은평 한옥마을",
          "category": "관광지",
          "lat": 37.6402,
          "lng": 126.936
        }
      ],
      "restaurants": [
        {
          "name": "샤로수길 텐동요츠야",
          "category": "식당",
          "lat": 37.4795,
          "lng": 126.9525
        },
        {
          "name": "1인1상 (은평점)",
          "category": "식당",
          "lat": 37.6405,
          "lng": 126.9355
        }
      ]
    }
  }
}
