{
  "plans": {
    "day1": {
      "route": [
        {
          "name": "서울공예박물관",
          "category": "관광지",
          "lat": 37.5765,
          "lng": 126.9831
        },
        {
          "name": "톤티커피",
          "category": "관광지",
          "lat": 37.5772,
          "lng": 126.9856
        },
        {
          "name": "창신숭인 채석장 전망대",
          "category": "관광지",
          "lat": 37.5794,
          "lng": 127.0142
        },
        {
          "name": "낙산공원",
          "category": "관광지",
          "lat": 37.5807,
          "lng": 127.0065
        },
        {
          "name": "광장시장",
          "category": "관광지",
          "lat": 37.5701,
          "lng": 126.9993
        }
      ],
      "restaurants": [
        {
          "name": "엄용백 돼지국밥 종각점",
          "category": "식당",
          "lat": 37.5721,
          "lng": 126.9845
        },
        {
          "name": "스파게티가있는풍경",
          "category": "식당",
          "lat": 37.5705,
          "lng": 126.9749
        }
      ],
      "accommodations": [
        {
          "name": "나인트리 바이 파르나스 서울 인사동",
          "category": "숙박",
          "lat": 37.5746,
          "lng": 126.9841
        }
      ]
    },
    "day2": {
      "route": [
        {
          "name": "낙산 성곽길",
          "category": "관광지",
          "lat": 37.5815,
          "lng": 127.0078
        },
        {
          "name": "한양도성길 2코스 조망점",
          "category": "관광지",
          "lat": 37.583,
          "lng": 127.009
        },
        {
          "name": "삼청공원",
          "category": "관광지",
          "lat": 37.5888,
          "lng": 126.984
        },
        {
          "name": "북촌 한옥마을",
          "category": "관광지",
          "lat": 37.5826,
          "lng": 126.9836
        },
        {
          "name": "수성동계곡 산책로",
          "category": "관광지",
          "lat": 37.5818,
          "lng": 126.9634
        }
      ],
      "restaurants": [
        {
          "name": "안국 안암",
          "category": "식당",
          "lat": 37.5781,
          "lng": 126.9868
        },
        {
          "name": "종로 도마",
          "category": "식당",
          "lat": 37.5739,
          "lng": 126.9858
        }
      ]
    }
  }
}
