{
  "plans": {
    "day1": {
      "route": [
        {
          "name": "경의선 숲길 (연트럴파크)",
          "category": "공원",
          "lat": 37.5623,
          "lng": 126.9234
        },
        {
          "name": "KT&G 상상마당 홍대",
          "category": "관광지",
          "lat": 37.5509,
          "lng": 126.9213
        },
        {
          "name": "망원시장",
          "category": "시장",
          "lat": 37.5559,
          "lng": 126.9064
        },
        {
          "name": "망원 한강공원",
          "category": "공원",
          "lat": 37.5523,
          "lng": 126.8997
        }
      ],
      "restaurants": [
        {
          "name": "소이연남",
          "category": "식당",
          "lat": 37.5635,
          "lng": 126.9254
        },
        {
          "name": "이치젠 (텐동)",
          "category": "식당",
          "lat": 37.5552,
          "lng": 126.9103
        }
      ],
      "accommodations": [
        {
          "name": "라이즈 오토그래프 컬렉션",
          "category": "숙박",
          "lat": 37.5543,
          "lng": 126.9221
        }
      ]
    },
    "day2": {
      "route": [
        {
          "name": "더현대 서울",
          "category": "관광지",
          "lat": 37.5259,
          "lng": 126.9284
        },
        {
          "name": "여의도 한강공원",
          "category": "공원",
          "lat": 37.5284,
          "lng": 126.9343
        },
        {
          "name": "63스퀘어 (63빌딩)",
          "category": "관광지",
          "lat": 37.5193,
          "lng": 126.9402
        },
        {
          "name": "노량진 수산시장",
          "category": "시장",
          "lat": 37.5134,
          "lng": 126.9416
        }
      ],
      "restaurants": [
        {
          "name": "진주집 (여의도백화점)",
          "category": "식당",
          "lat": 37.5204,
          "lng": 126.9306
        },
        {
          "name": "세상의모든아침",
          "category": "식당",
          "lat": 37.5218,
          "lng": 126.9189
        }
      ]
    },
    "day3": {
      "route": [
        {
          "name": "경복궁",
          "category": "관광지",
          "lat": 37.5796,
          "lng": 126.977
        },
        {
          "name": "북촌 한옥마을",
          "category": "관광지",
          "lat": 37.5826,
          "lng": 126.9835
        },
        {
          "name": "인사동 쌈지길",
          "category": "관광지",
          "lat": 37.5744,
          "lng": 126.9848
        },
        {
          "name": "광장시장",
          "category": "시장",
          "lat": 37.57,
          "lng": 126.9996
        }
      ],
      "restaurants": [
        {
          "name": "토속촌 삼계탕",
          "category": "식당",
          "lat": 37.5777,
          "lng": 126.9718
        },
        {
          "name": "개성만두 궁",
          "category": "식당",
          "lat": 37.5749,
          "lng": 126.9856
        }
      ]
    },
    "day4": {
      "route": [
        {
          "name": "명동 성당",
          "category": "관광지",
          "lat": 37.5631,
          "lng": 126.9873
        },
        {
          "name": "남산골 한옥마을",
          "category": "관광지",
          "lat": 37.5591,
          "lng": 126.9936
        },
        {
          "name": "남산 서울타워",
          "category": "관광지",
          "lat": 37.5512,
          "lng": 126.9882
        }
      ],
      "restaurants": [
        {
          "name": "명동교자 본점",
          "category": "식당",
          "lat": 37.5625,
          "lng": 126.9856
        },
        {
          "name": "목멱산방",
          "category": "식당",
          "lat": 37.5562,
          "lng": 126.9842
        }
      ]
    },
    "day5": {
      "route": [
        {
          "name": "동대문 디자인 플라자 (DDP)",
          "category": "관광지",
          "lat": 37.5665,
          "lng": 127.0092
        },
        {
          "name": "낙산공원 성곽길",
          "category": "공원",
          "lat": 37.5807,
          "lng": 127.0075
        },
        {
          "name": "성수동 카페거리",
          "category": "관광지",
          "lat": 37.5441,
          "lng": 127.0519
        },
        {
          "name": "서울숲",
          "category": "공원",
          "lat": 37.5443,
          "lng": 127.0374
        }
      ],
      "restaurants": [
        {
          "name": "대도식당 왕십리본점",
          "category": "식당",
          "lat": 37.5645,
          "lng": 127.0336
        },
        {
          "name": "소문난 성수 감자탕",
          "category": "식당",
          "lat": 37.5428,
          "lng": 127.0543
        }
      ]
    },
    "day6": {
      "route": [
        {
          "name": "롯데월드 타워 (서울스카이)",
          "category": "관광지",
          "lat": 37.5126,
          "lng": 127.1025
        },
        {
          "name": "석촌호수",
          "category": "공원",
          "lat": 37.5073,
          "lng": 127.1022
        },
        {
          "name": "올림픽공원 (나홀로나무)",
          "category": "공원",
          "lat": 37.5161,
          "lng": 127.1302
        }
      ],
      "restaurants": [
        {
          "name": "해주냉면",
          "category": "식당",
          "lat": 37.5074,
          "lng": 127.0781
        },
        {
          "name": "송리단길 갓잇",
          "category": "식당",
          "lat": 37.5085,
          "lng": 127.1089
        }
      ]
    },
    "day7": {
      "route": [
        {
          "name": "강남 가로수길",
          "category": "관광지",
          "lat": 37.5203,
          "lng": 127.023
        },
        {
          "name": "별마당 도서관 (코엑스몰)",
          "category": "관광지",
          "lat": 37.5119,
          "lng": 127.0593
        },
        {
          "name": "봉은사",
          "category": "관광지",
          "lat": 37.5142,
          "lng": 127.0573
        }
      ],
      "restaurants": [
        {
          "name": "정식당",
          "category": "식당",
          "lat": 37.5256,
          "lng": 127.0403
        },
        {
          "name": "중앙해장",
          "category": "식당",
          "lat": 37.5083,
          "lng": 127.0639
        }
      ]
    }
  }
}
