{
  "plans": {
    "day1": {
      "route": [
        {
          "name": "망원정 터",
          "category": "역사유적지",
          "lat": 37.5499992917,
          "lng": 126.9047532101
        },
        {
          "name": "선유도공원",
          "category": "도시공원",
          "lat": 37.5422918129,
          "lng": 126.902442527
        },
        {
          "name": "절두산 순교성지",
          "category": "종교성지",
          "lat": 37.5446417087,
          "lng": 126.911874934
        },
        {
          "name": "양화진홀 전시관",
          "category": "전시시설",
          "lat": 37.546477603,
          "lng": 126.911699899
        },
        {
          "name": "메세나폴리스 몰",
          "category": "쇼핑몰",
          "lat": 37.5513131918,
          "lng": 126.9139217822
        }
      ],
      "restaurants": [
        {
          "name": "코끼리베이글",
          "category": "카페",
          "lat": 37.5293098155,
          "lng": 126.8927437773
        },
        {
          "name": "아리수만찬",
          "category": "한식",
          "lat": 37.5453940744,
          "lng": 126.8936960153
        }
      ],
      "accommodations": [
        {
          "name": "호텔로프트",
          "category": "호텔",
          "lat": 37.5347009629,
          "lng": 126.8987486333
        }
      ]
    },
    "day2": {
      "route": [
        {
          "name": "국립항공박물관",
          "category": "전시시설",
          "lat": 37.5569217768,
          "lng": 126.8088867586
        },
        {
          "name": "롯데몰 김포공항점",
          "category": "쇼핑몰",
          "lat": 37.5621960337,
          "lng": 126.8015844987
        },
        {
          "name": "강서습지생태공원",
          "category": "자연생태",
          "lat": 37.5860879769,
          "lng": 126.8171490732
        },
        {
          "name": "방화대교",
          "category": "랜드마크관광",
          "lat": 37.5660513299,
          "lng": 126.8122361958
        },
        {
          "name": "허준박물관",
          "category": "전시시설",
          "lat": 37.5678379253,
          "lng": 126.8510492715
        }
      ],
      "restaurants": [
        {
          "name": "띠아낭",
          "category": "외국식",
          "lat": 37.5559616332,
          "lng": 126.85690185
        },
        {
          "name": "브라운씨카페",
          "category": "카페",
          "lat": 37.5511645918,
          "lng": 126.8357761341
        }
      ],
      "accommodations": []
    }
  }
}