{
  "plans": {
    "day1": {
      "route": [
        {
          "name": "석촌호수",
          "category": "공원",
          "lat": 37.5095713442,
          "lng": 127.0979728676
        },
        {
          "name": "롯데월드 아이스링크",
          "category": "레저",
          "lat": 37.5123821225,
          "lng": 127.0976311526
        },
        {
          "name": "롯데월드 쇼핑몰",
          "category": "쇼핑",
          "lat": 37.5141653654,
          "lng": 127.1040749597
        },
        {
          "name": "서울 방이동 고분군",
          "category": "역사",
          "lat": 37.507405293,
          "lng": 127.1181655365
        },
        {
          "name": "올림픽공원",
          "category": "공원",
          "lat": 37.5206092598,
          "lng": 127.1150682209
        }
      ],
      "restaurants": [
        {
          "name": "군산오징어 본점",
          "category": "식당",
          "lat": 37.5063411468,
          "lng": 127.0970258234
        },
        {
          "name": "드럼통 참숯석쇠구이",
          "category": "식당",
          "lat": 37.5057550957,
          "lng": 127.0965869906
        }
      ],
      "accommodations": [
        {
          "name": "로사나부티크호텔",
          "category": "숙박",
          "lat": 37.5060550786,
          "lng": 127.0975757814
        }
      ]
    },
    "day2": {
      "route": [
        {
          "name": "풍납도깨비시장",
          "category": "시장",
          "lat": 37.5375518286,
          "lng": 127.1201506098
        },
        {
          "name": "서울놀이마당",
          "category": "문화",
          "lat": 37.5097129968,
          "lng": 127.0981006298
        },
        {
          "name": "가락농수산물종합도매시장",
          "category": "시장",
          "lat": 37.4960786971,
          "lng": 127.1107693087
        },
        {
          "name": "마천시장",
          "category": "시장",
          "lat": 37.4980180786,
          "lng": 127.1505795216
        },
        {
          "name": "아트박스 위례앨리웨이점",
          "category": "쇼핑",
          "lat": 37.4801089299,
          "lng": 127.1441500596
        }
      ],
      "restaurants": [
        {
          "name": "진성한우곱창",
          "category": "식당",
          "lat": 37.4947623594,
          "lng": 127.1205740095
        },
        {
          "name": "툇마루밥상",
          "category": "식당",
          "lat": 37.481941673,
          "lng": 127.1232269102
        }
      ],
      "accommodations": [
        {
          "name": "스페이스휴",
          "category": "숙박",
          "lat": 37.5067304392,
          "lng": 127.1219318799
        }
      ]
    },
    "day3": {
      "route": [
        {
          "name": "문정동 로데오거리",
          "category": "쇼핑",
          "lat": 37.4891519596,
          "lng": 127.1239099771
        },
        {
          "name": "올리브영 문정역점",
          "category": "쇼핑",
          "lat": 37.4851718374,
          "lng": 127.1223102349
        },
        {
          "name": "코코몽키즈랜드 송파점",
          "category": "체험",
          "lat": 37.4776672007,
          "lng": 127.1249768726
        },
        {
          "name": "파리게이츠 현대아울렛 가든파이브점",
          "category": "쇼핑",
          "lat": 37.4776672007,
          "lng": 127.1249768726
        },
        {
          "name": "롯데월드 쇼핑몰",
          "category": "쇼핑",
          "lat": 37.5141653654,
          "lng": 127.1040749597
        }
      ],
      "restaurants": [
        {
          "name": "캐롤스 본점",
          "category": "식당",
          "lat": 37.5141653654,
          "lng": 127.1040749597
        },
        {
          "name": "올리브영 석촌역점",
          "category": "식당",
          "lat": 37.506555218,
          "lng": 127.1085331038
        }
      ],
      "accommodations": []
    }
  }
}