{
  "plans": {
    "day1": {
      "route": [
        {
          "name": "광화문",
          "category": "역사/문화",
          "lat": 37.576072552,
          "lng": 126.9768042386
        },
        {
          "name": "광화문광장",
          "category": "문화/예술",
          "lat": 37.5727035021,
          "lng": 126.9769709861
        },
        {
          "name": "서울역사박물관",
          "category": "박물관",
          "lat": 37.5698981615,
          "lng": 126.9707771853
        },
        {
          "name": "경희궁",
          "category": "역사/문화",
          "lat": 37.5705250021,
          "lng": 126.9675113473
        },
        {
          "name": "사직공원(서울)",
          "category": "공원",
          "lat": 37.5758446558,
          "lng": 126.9687216489
        }
      ],
      "restaurants": [
        {
          "name": "고디바 광화문점",
          "category": "식당",
          "lat": 37.5706565064,
          "lng": 126.9763349907
        },
        {
          "name": "광화문 마켓",
          "category": "식당",
          "lat": 37.5716786179,
          "lng": 126.9767821434
        }
      ],
      "accommodations": [
        {
          "name": "한스하우스(Hans house)",
          "category": "숙박",
          "lat": 37.5774778296,
          "lng": 126.9704270026
        }
      ]
    },
    "day2": {
      "route": [
        {
          "name": "서울 운현궁",
          "category": "역사/문화",
          "lat": 37.5764588036,
          "lng": 126.9871421746
        },
        {
          "name": "창덕궁과 후원 [유네스코 세계유산]",
          "category": "궁궐",
          "lat": 37.5777031595,
          "lng": 126.9902446339
        },
        {
          "name": "조계사(서울)",
          "category": "사찰",
          "lat": 37.5739784579,
          "lng": 126.9827509785
        },
        {
          "name": "청계천",
          "category": "자연/공원",
          "lat": 37.5697015781,
          "lng": 127.0050907302
        },
        {
          "name": "동대문종합시장 한복상가",
          "category": "쇼핑",
          "lat": 37.5709736927,
          "lng": 127.0073349346
        }
      ],
      "restaurants": [
        {
          "name": "때때롯살롱",
          "category": "식당",
          "lat": 37.5734536461,
          "lng": 126.9898531239
        },
        {
          "name": "지유",
          "category": "식당",
          "lat": 37.5737346471,
          "lng": 127.0164673572
        }
      ],
      "accommodations": []
    }
  }
}