{
  "plans": {
    "day1": {
      "route": [
        {
          "name": "종로구 전시관",
          "category": "전시관",
          "lat": 37.579055,
          "lng": 126.966647
        },
        {
          "name": "종로구 감성카페",
          "category": "카페",
          "lat": 37.573011,
          "lng": 126.901607
        },
        {
          "name": "종로구 전망대",
          "category": "전망대",
          "lat": 37.576537,
          "lng": 127.081815
        },
        {
          "name": "종로구 공원",
          "category": "공원",
          "lat": 37.49513,
          "lng": 127.006918
        },
        {
          "name": "종로구 공원",
          "category": "공원",
          "lat": 37.483534,
          "lng": 126.922631
        }
      ],
      "restaurants": [
        {
          "name": "종로구 맛집",
          "category": "식당",
          "lat": 37.534646,
          "lng": 127.062369
        },
        {
          "name": "종로구 국밥집",
          "category": "식당",
          "lat": 37.502857,
          "lng": 127.026018
        }
      ],
      "accommodations": [
        {
          "name": "종로구 호텔",
          "category": "숙박",
          "lat": 37.449571,
          "lng": 127.069121
        }
      ]
    },
    "day2": {
      "route": [
        {
          "name": "종로구 시장",
          "category": "시장",
          "lat": 37.443947,
          "lng": 127.138719
        },
        {
          "name": "종로구 산책로",
          "category": "산책로",
          "lat": 37.412347,
          "lng": 127.064755
        },
        {
          "name": "종로구 전망대",
          "category": "전망대",
          "lat": 37.406238,
          "lng": 126.929076
        },
        {
          "name": "종로구 공원",
          "category": "공원",
          "lat": 37.411209,
          "lng": 126.899211
        },
        {
          "name": "종로구 명소",
          "category": "명소",
          "lat": 37.477323,
          "lng": 126.81287
        }
      ],
      "restaurants": [
        {
          "name": "종로구 국밥집",
          "category": "식당",
          "lat": 37.475327,
          "lng": 126.888155
        },
        {
          "name": "종로구 파스타집",
          "category": "식당",
          "lat": 37.470192,
          "lng": 127.193948
        }
      ],
      "accommodations": []
    }
  }
}